% program   : RTKLIB ver.2.4.3
% inp file  : ..\ebay.obs
% inp file  : ..\csg.obs
% inp file  : ..\ebay.*
% obs start : 2015/12/14 17:24:57.0 GPST (week1875 149097.0s)
% obs end   : 2015/12/14 18:35:26.0 GPST (week1875 153326.0s)
% pos mode  : kinematic
% freqs     : L1
% solution  : forward
% elev mask : 15.0 deg
% dynamics  : on
% tidecorr  : off
% ionos opt : broadcast
% tropo opt : saastamoinen
% ephemeris : broadcast
% navi sys  : gps glonass
% amb res   : fix and hold
% amb glo   : off
% val thres : 3.0
% antenna1  :                       ( 0.0000  0.0000  0.0000)
% antenna2  :                       ( 0.0000  0.0000  0.0000)
% ref pos   : 40.086179918-105.206044414 1575.6355
%
% (e/n/u-baseline=WGS84,Q=1:fix,2:float,3:sbas,4:dgps,5:single,6:ppp,ns=# of satellites)
%  GPST                  e-baseline(m)  n-baseline(m)  u-baseline(m)   Q  ns   sde(m)   sdn(m)   sdu(m)  sden(m)  sdnu(m)  sdue(m) age(s)  ratio
2015/12/14 17:24:57.000        -0.6970         0.1185        -2.5211   2  14   1.3662   1.5742   3.4640  -0.5676  -0.4186  -0.8436  -1.00    0.0
2015/12/14 17:24:58.000        -0.6270         0.1041        -2.3853   2  14   1.0190   1.1822   2.6134  -0.4311  -0.4126  -0.5681   0.00    0.0
2015/12/14 17:24:59.000        -0.5117         0.0179        -2.4716   2  14   0.8481   0.9858   2.1839  -0.3613  -0.3740  -0.4497   0.00    0.0
2015/12/14 17:25:00.000        -0.3610        -0.0578        -2.6857   2  14   0.7417   0.8623   1.9126  -0.3168  -0.3423  -0.3808   0.00    0.0
2015/12/14 17:25:01.000        -0.2075        -0.0988        -2.8541   2  14   0.6673   0.7752   1.7208  -0.2851  -0.3178  -0.3345   0.00    0.0
2015/12/14 17:25:02.000        -0.0487        -0.1187        -3.0251   2  14   0.6115   0.7093   1.5756  -0.2609  -0.2984  -0.3004   0.00    0.0
2015/12/14 17:25:03.000         0.0795        -0.1567        -3.1142   2  14   0.5676   0.6570   1.4605  -0.2416  -0.2830  -0.2738   0.00    0.0
2015/12/14 17:25:04.000         0.2267        -0.2171        -3.2971   2  14   0.5319   0.6142   1.3660  -0.2256  -0.2704  -0.2522   0.00    0.0
2015/12/14 17:25:05.000         0.3447        -0.2443        -3.3866   2  14   0.5021   0.5781   1.2864  -0.2121  -0.2601  -0.2341   0.00    0.0
2015/12/14 17:25:06.000         0.4055        -0.2678        -3.5101   2  14   0.4767   0.5470   1.2180  -0.2004  -0.2514  -0.2184   0.00    0.0
2015/12/14 17:25:07.000         0.4337        -0.2623        -3.5401   2  14   0.4548   0.5199   1.1583  -0.1901  -0.2440  -0.2046   0.00    0.0
2015/12/14 17:25:08.000         0.4452        -0.2346        -3.6025   2  14   0.4356   0.4959   1.1055  -0.1809  -0.2377  -0.1923   0.00    0.0
2015/12/14 17:25:09.000         0.4404        -0.2400        -3.5835   2  14   0.4185   0.4744   1.0582  -0.1727  -0.2322  -0.1812   0.00    0.0
2015/12/14 17:25:10.000         0.4304        -0.2169        -3.5040   2  14   0.4033   0.4549   1.0155  -0.1652  -0.2273  -0.1710   0.00    0.0
2015/12/14 17:25:11.000         0.4004        -0.1850        -3.4009   2  14   0.3896   0.4372   0.9766  -0.1583  -0.2230  -0.1616   0.00    0.0
2015/12/14 17:25:12.000         0.3677        -0.1657        -3.3184   2  14   0.3771   0.4209   0.9409  -0.1519  -0.2191  -0.1528   0.00    0.0
2015/12/14 17:25:13.000         0.3265        -0.1587        -3.1874   2  14   0.3657   0.4059   0.9080  -0.1461  -0.2156  -0.1446   0.00    0.0
2015/12/14 17:25:14.000         0.3011        -0.1693        -3.1359   2  14   0.3552   0.3920   0.8775  -0.1406  -0.2124  -0.1368   0.00    0.0
2015/12/14 17:25:15.000         0.2595        -0.1795        -3.0064   2  14   0.3455   0.3790   0.8490  -0.1354  -0.2094  -0.1294   0.00    0.0
2015/12/14 17:25:16.000         0.2318        -0.1954        -2.8976   2  14   0.3366   0.3668   0.8224  -0.1306  -0.2066  -0.1224   0.00    0.0
2015/12/14 17:25:17.000         0.2003        -0.2136        -2.7718   2  14   0.3283   0.3554   0.7974  -0.1261  -0.2039  -0.1156   0.00    0.0
2015/12/14 17:25:18.000         0.1774        -0.2273        -2.6286   2  14   0.3205   0.3446   0.7739  -0.1218  -0.2014  -0.1091   0.00    0.0
2015/12/14 17:25:19.000         0.1582        -0.2435        -2.5081   2  14   0.3132   0.3344   0.7517  -0.1177  -0.1989  -0.1028   0.00    0.0
2015/12/14 17:25:20.000         0.1417        -0.2791        -2.3263   2  14   0.3064   0.3248   0.7306  -0.1139  -0.1966  -0.0967   0.00    0.0
2015/12/14 17:25:21.000         0.1306        -0.2556        -2.1772   2  14   0.2999   0.3156   0.7106  -0.1102  -0.1943  -0.0908   0.00    0.0
2015/12/14 17:25:22.000         0.1217        -0.2470        -2.0326   2  14   0.2938   0.3069   0.6916  -0.1067  -0.1920  -0.0849   0.00    0.0
2015/12/14 17:25:23.000         0.1249        -0.2410        -1.8862   2  14   0.2881   0.2986   0.6735  -0.1034  -0.1898  -0.0792   0.00    0.0
2015/12/14 17:25:24.000         0.1452        -0.2306        -1.7788   2  14   0.2826   0.2907   0.6562  -0.1002  -0.1876  -0.0736   0.00    0.0
2015/12/14 17:25:25.000         0.1654        -0.2428        -1.6790   2  14   0.2774   0.2831   0.6397  -0.0972  -0.1854  -0.0679   0.00    0.0
2015/12/14 17:25:26.000         0.1850        -0.2656        -1.5582   2  14   0.2725   0.2759   0.6239  -0.0943  -0.1833  -0.0623   0.00    0.0
2015/12/14 17:25:27.000         0.2076        -0.2955        -1.4566   2  14   0.2678   0.2689   0.6088  -0.0915  -0.1812  -0.0566   0.00    0.0
2015/12/14 17:25:28.000         0.2171        -0.3231        -1.3479   2  14   0.2633   0.2623   0.5942  -0.0889  -0.1791  -0.0508   0.00    0.0
2015/12/14 17:25:29.000         0.2266        -0.3584        -1.2859   2  14   0.2590   0.2559   0.5802  -0.0863  -0.1770  -0.0448   0.00    0.0
2015/12/14 17:25:30.000         0.2337        -0.3832        -1.2126   2  14   0.2549   0.2497   0.5668  -0.0839  -0.1749  -0.0384   0.00    0.0
2015/12/14 17:25:31.000         0.2347        -0.4106        -1.1473   2  14   0.2510   0.2438   0.5539  -0.0815  -0.1728  -0.0314   0.00    0.0
2015/12/14 17:25:32.000         0.2332        -0.4236        -1.0887   2  14   0.2472   0.2382   0.5414  -0.0793  -0.1707  -0.0230   0.00    0.0
2015/12/14 17:25:33.000         0.2267        -0.4332        -1.0267   2  14   0.2436   0.2327   0.5294  -0.0771  -0.1687  -0.0106   0.00    0.0
2015/12/14 17:25:34.000         0.2268        -0.4508        -0.9773   2  14   0.2401   0.2274   0.5179  -0.0750  -0.1666   0.0165   0.00    0.0
2015/12/14 17:25:35.000         0.2201        -0.4550        -0.9188   2  14   0.2367   0.2223   0.5067  -0.0730  -0.1646   0.0251   0.00    0.0
2015/12/14 17:25:36.000         0.2041        -0.4544        -0.8747   2  14   0.2335   0.2174   0.4959  -0.0711  -0.1626   0.0310   0.00    0.0
2015/12/14 17:25:37.000         0.1825        -0.4548        -0.8174   2  14   0.2303   0.2126   0.4855  -0.0692  -0.1605   0.0355   0.00    0.0
2015/12/14 17:25:38.000         0.1609        -0.4557        -0.7805   2  14   0.2273   0.2080   0.4754  -0.0674  -0.1585   0.0393   0.00    0.0
2015/12/14 17:25:39.000         0.1357        -0.4385        -0.7383   2  14   0.2244   0.2036   0.4656  -0.0657  -0.1565   0.0424   0.00    0.0
2015/12/14 17:25:40.000         0.1159        -0.4375        -0.7021   2  14   0.2216   0.1993   0.4562  -0.0641  -0.1546   0.0452   0.00    0.0
2015/12/14 17:25:41.000         0.0938        -0.4398        -0.6957   2  15   0.2186   0.1951   0.4465  -0.0625  -0.1526   0.0450   0.00    0.0
2015/12/14 17:25:42.000         0.0744        -0.4480        -0.6873   2  15   0.2158   0.1911   0.4373  -0.0609  -0.1507   0.0457   0.00    0.0
2015/12/14 17:25:43.000         0.0509        -0.4427        -0.6950   2  15   0.2130   0.1872   0.4285  -0.0594  -0.1487   0.0465   0.00    0.0
2015/12/14 17:25:44.000         0.0292        -0.4359        -0.6664   2  15   0.2104   0.1835   0.4199  -0.0579  -0.1468   0.0472   0.00    0.0
2015/12/14 17:25:45.000         0.0054        -0.4377        -0.6381   2  15   0.2079   0.1798   0.4116  -0.0565  -0.1449   0.0479   0.00    0.0
2015/12/14 17:25:46.000        -0.0146        -0.4429        -0.6158   2  15   0.2054   0.1763   0.4036  -0.0552  -0.1430   0.0485   0.00    0.0
2015/12/14 17:25:47.000        -0.0355        -0.4452        -0.5656   2  15   0.2030   0.1728   0.3958  -0.0538  -0.1411   0.0492   0.00    0.0
2015/12/14 17:25:48.000        -0.0516        -0.4477        -0.5273   2  15   0.2006   0.1695   0.3883  -0.0526  -0.1393   0.0498   0.00    0.0
2015/12/14 17:25:49.000        -0.0731        -0.4521        -0.4763   2  15   0.1984   0.1662   0.3809  -0.0513  -0.1374   0.0504   0.00    0.0
2015/12/14 17:25:50.000        -0.0945        -0.4551        -0.4562   2  15   0.1962   0.1631   0.3739  -0.0501  -0.1356   0.0509   0.00    0.0
2015/12/14 17:25:51.000        -0.1152        -0.4519        -0.4325   2  15   0.1940   0.1600   0.3670  -0.0490  -0.1338   0.0514   0.00    0.0
2015/12/14 17:25:52.000        -0.1352        -0.4486        -0.4103   2  15   0.1919   0.1571   0.3603  -0.0478  -0.1321   0.0519   0.00    0.0
2015/12/14 17:25:53.000        -0.1535        -0.4474        -0.3878   2  15   0.1899   0.1542   0.3538  -0.0467  -0.1303   0.0524   0.00    0.0
2015/12/14 17:25:54.000        -0.1774        -0.4371        -0.3438   2  15   0.1879   0.1514   0.3476  -0.0457  -0.1286   0.0528   0.00    0.0
2015/12/14 17:25:55.000        -0.2044        -0.4405        -0.3283   2  15   0.1860   0.1487   0.3414  -0.0447  -0.1269   0.0532   0.00    0.0
2015/12/14 17:25:56.000        -0.2294        -0.4342        -0.3073   2  15   0.1841   0.1460   0.3355  -0.0437  -0.1253   0.0535   0.00    0.0
2015/12/14 17:25:57.000        -0.2558        -0.4181        -0.2882   2  15   0.1822   0.1434   0.3297  -0.0427  -0.1236   0.0539   0.00    0.0
2015/12/14 17:25:58.000        -0.2837        -0.4037        -0.2682   2  15   0.1804   0.1409   0.3241  -0.0418  -0.1220   0.0542   0.00    0.0
2015/12/14 17:25:59.000        -0.3018        -0.4011        -0.3013   2  15   0.1787   0.1385   0.3186  -0.0409  -0.1204   0.0545   0.00    0.0
2015/12/14 17:26:00.000        -0.3272        -0.3874        -0.3147   2  15   0.1769   0.1361   0.3133  -0.0400  -0.1188   0.0547   0.00    0.0
2015/12/14 17:26:01.000        -0.3609        -0.3651        -0.2902   2  15   0.1753   0.1338   0.3081  -0.0392  -0.1173   0.0550   0.00    0.0
2015/12/14 17:26:02.000        -0.3895        -0.3546        -0.2947   2  15   0.1736   0.1316   0.3031  -0.0384  -0.1157   0.0552   0.00    0.0
2015/12/14 17:26:03.000        -0.4183        -0.3415        -0.2995   2  15   0.1720   0.1294   0.2982  -0.0376  -0.1142   0.0554   0.00    0.0
2015/12/14 17:26:04.000        -0.4439        -0.3358        -0.3090   2  15   0.1704   0.1272   0.2934  -0.0368  -0.1128   0.0555   0.00    0.0
2015/12/14 17:26:05.000        -0.4707        -0.3286        -0.3262   2  15   0.1689   0.1251   0.2887  -0.0360  -0.1113   0.0557   0.00    0.0
2015/12/14 17:26:06.000        -0.5036        -0.3168        -0.3277   2  15   0.1674   0.1231   0.2841  -0.0353  -0.1099   0.0558   0.00    0.0
2015/12/14 17:26:07.000        -0.5341        -0.3222        -0.3567   2  15   0.1659   0.1211   0.2797  -0.0346  -0.1085   0.0559   0.00    0.0
2015/12/14 17:26:08.000        -0.5617        -0.3187        -0.3605   2  15   0.1645   0.1192   0.2754  -0.0339  -0.1071   0.0560   0.00    0.0
2015/12/14 17:26:09.000        -0.5930        -0.3174        -0.3693   2  15   0.1630   0.1173   0.2712  -0.0332  -0.1057   0.0561   0.00    0.0
2015/12/14 17:26:10.000        -0.6205        -0.3118        -0.3849   2  15   0.1616   0.1155   0.2670  -0.0326  -0.1044   0.0562   0.00    0.0
2015/12/14 17:26:11.000        -0.6480        -0.3197        -0.3860   2  15   0.1603   0.1137   0.2630  -0.0320  -0.1030   0.0562   0.00    0.0
2015/12/14 17:26:12.000        -0.6735        -0.3208        -0.3929   2  15   0.1589   0.1119   0.2591  -0.0314  -0.1017   0.0563   0.00    0.0
2015/12/14 17:26:13.000        -0.7005        -0.3264        -0.3989   2  15   0.1576   0.1102   0.2553  -0.0308  -0.1005   0.0563   0.00    0.0
2015/12/14 17:26:14.000        -0.7285        -0.3230        -0.4108   2  15   0.1563   0.1086   0.2515  -0.0302  -0.0992   0.0563   0.00    0.0
2015/12/14 17:26:15.000        -0.7532        -0.3161        -0.4205   2  15   0.1550   0.1069   0.2479  -0.0296  -0.0980   0.0563   0.00    0.0
2015/12/14 17:26:16.000        -0.7730        -0.3127        -0.4407   2  15   0.1538   0.1053   0.2443  -0.0291  -0.0967   0.0563   0.00    0.0
2015/12/14 17:26:17.000        -0.7912        -0.3117        -0.4545   2  15   0.1525   0.1038   0.2408  -0.0285  -0.0955   0.0563   0.00    0.0
2015/12/14 17:26:18.000        -0.8097        -0.3117        -0.4648   2  15   0.1513   0.1023   0.2374  -0.0280  -0.0944   0.0563   0.00    0.0
2015/12/14 17:26:19.000        -0.8241        -0.3143        -0.4957   2  15   0.1502   0.1008   0.2340  -0.0275  -0.0932   0.0562   0.00    0.0
2015/12/14 17:26:20.000        -0.8379        -0.3151        -0.5156   2  15   0.1490   0.0993   0.2308  -0.0270  -0.0921   0.0562   0.00    0.0
2015/12/14 17:26:21.000        -0.8470        -0.3185        -0.5303   2  15   0.1478   0.0979   0.2276  -0.0266  -0.0910   0.0561   0.00    0.0
2015/12/14 17:26:22.000        -0.8572        -0.3184        -0.5657   2  15   0.1467   0.0965   0.2245  -0.0261  -0.0899   0.0560   0.00    0.0
2015/12/14 17:26:23.000        -0.8625        -0.3137        -0.5874   2  15   0.1456   0.0952   0.2214  -0.0256  -0.0888   0.0560   0.00    0.0
2015/12/14 17:26:24.000        -0.8666        -0.3147        -0.6188   2  15   0.1445   0.0939   0.2185  -0.0252  -0.0877   0.0559   0.00    0.0
2015/12/14 17:26:25.000        -0.8735        -0.3150        -0.6427   2  15   0.1434   0.0926   0.2155  -0.0248  -0.0867   0.0558   0.00    0.0
2015/12/14 17:26:26.000        -0.8768        -0.3106        -0.6608   2  15   0.1424   0.0913   0.2127  -0.0244  -0.0856   0.0557   0.00    0.0
2015/12/14 17:26:27.000        -0.8806        -0.3072        -0.6807   2  15   0.1413   0.0901   0.2099  -0.0239  -0.0846   0.0556   0.00    0.0
2015/12/14 17:26:28.000        -0.8824        -0.3022        -0.6986   2  15   0.1403   0.0888   0.2071  -0.0235  -0.0836   0.0555   0.00    0.0
2015/12/14 17:26:29.000        -0.8802        -0.3026        -0.7132   2  15   0.1393   0.0877   0.2045  -0.0232  -0.0827   0.0554   0.00    0.0
2015/12/14 17:26:30.000        -0.8818        -0.2972        -0.7189   2  15   0.1383   0.0865   0.2018  -0.0228  -0.0817   0.0553   0.00    0.0
2015/12/14 17:26:31.000        -0.8785        -0.2968        -0.7365   2  15   0.1373   0.0854   0.1993  -0.0224  -0.0807   0.0551   0.00    0.0
2015/12/14 17:26:32.000        -0.8749        -0.2951        -0.7460   2  15   0.1363   0.0842   0.1968  -0.0221  -0.0798   0.0550   0.00    0.0
2015/12/14 17:26:33.000        -0.8704        -0.2919        -0.7402   2  15   0.1353   0.0831   0.1943  -0.0217  -0.0789   0.0549   0.00    0.0
2015/12/14 17:26:34.000        -0.8674        -0.2921        -0.7530   2  15   0.1344   0.0821   0.1919  -0.0214  -0.0780   0.0547   0.00    0.0
2015/12/14 17:26:35.000        -0.8632        -0.2933        -0.7563   2  15   0.1335   0.0810   0.1895  -0.0210  -0.0771   0.0546   0.00    0.0
2015/12/14 17:26:36.000        -0.8606        -0.2961        -0.7584   2  15   0.1325   0.0800   0.1872  -0.0207  -0.0763   0.0544   0.00    0.0
2015/12/14 17:26:37.000        -0.8597        -0.2981        -0.7656   2  15   0.1316   0.0790   0.1849  -0.0204  -0.0754   0.0543   0.00    0.0
2015/12/14 17:26:38.000        -0.8550        -0.2963        -0.7658   2  15   0.1307   0.0780   0.1827  -0.0201  -0.0746   0.0541   0.00    0.0
2015/12/14 17:26:39.000        -0.8531        -0.2954        -0.7664   2  15   0.1299   0.0770   0.1805  -0.0198  -0.0737   0.0540   0.00    0.0
2015/12/14 17:26:40.000        -0.8487        -0.2940        -0.7685   2  15   0.1290   0.0761   0.1783  -0.0195  -0.0729   0.0538   0.00    0.0
2015/12/14 17:26:41.000        -0.8501        -0.2915        -0.7670   2  15   0.1281   0.0752   0.1762  -0.0192  -0.0721   0.0537   0.00    0.0
2015/12/14 17:26:42.000        -0.8491        -0.2879        -0.7573   2  15   0.1273   0.0743   0.1742  -0.0189  -0.0713   0.0535   0.00    0.0
2015/12/14 17:26:43.000        -0.8465        -0.2862        -0.7508   2  15   0.1264   0.0734   0.1722  -0.0187  -0.0705   0.0533   0.00    0.0
2015/12/14 17:26:44.000        -0.8460        -0.2844        -0.7438   2  15   0.1256   0.0725   0.1702  -0.0184  -0.0698   0.0532   0.00    0.0
2015/12/14 17:26:45.000        -0.8475        -0.2800        -0.7297   2  15   0.1248   0.0716   0.1682  -0.0181  -0.0690   0.0530   0.00    0.0
2015/12/14 17:26:46.000        -0.8473        -0.2803        -0.7101   2  15   0.1240   0.0708   0.1663  -0.0179  -0.0683   0.0528   0.00    0.0
2015/12/14 17:26:47.000        -0.8474        -0.2808        -0.6985   2  15   0.1232   0.0700   0.1644  -0.0176  -0.0676   0.0526   0.00    0.0
2015/12/14 17:26:48.000        -0.8479        -0.2780        -0.6878   2  15   0.1224   0.0692   0.1626  -0.0174  -0.0669   0.0525   0.00    0.0
2015/12/14 17:26:49.000        -0.8477        -0.2767        -0.6817   2  15   0.1216   0.0684   0.1608  -0.0172  -0.0662   0.0523   0.00    0.0
2015/12/14 17:26:50.000        -0.8475        -0.2762        -0.6705   2  15   0.1208   0.0676   0.1590  -0.0169  -0.0655   0.0521   0.00    0.0
2015/12/14 17:26:51.000        -0.8428        -0.2765        -0.6578   2  15   0.1201   0.0668   0.1573  -0.0167  -0.0648   0.0519   0.00    0.0
2015/12/14 17:26:52.000        -0.8430        -0.2745        -0.6467   2  15   0.1193   0.0661   0.1555  -0.0165  -0.0641   0.0517   0.00    0.0
2015/12/14 17:26:53.000        -0.8402        -0.2750        -0.6373   2  15   0.1186   0.0653   0.1539  -0.0163  -0.0634   0.0515   0.00    0.0
2015/12/14 17:26:54.000        -0.8413        -0.2760        -0.6298   2  15   0.1178   0.0646   0.1522  -0.0160  -0.0628   0.0514   0.00    0.0
2015/12/14 17:26:55.000        -0.8379        -0.2736        -0.6189   2  15   0.1171   0.0639   0.1506  -0.0158  -0.0622   0.0512   0.00    0.0
2015/12/14 17:26:56.000        -0.8307        -0.2739        -0.6020   2  15   0.1164   0.0632   0.1490  -0.0156  -0.0615   0.0510   0.00    0.0
2015/12/14 17:26:57.000        -0.8235        -0.2738        -0.5874   2  15   0.1157   0.0625   0.1474  -0.0154  -0.0609   0.0508   0.00    2.0
2015/12/14 17:26:58.000        -0.8168        -0.2727        -0.5725   2  15   0.1150   0.0618   0.1459  -0.0152  -0.0603   0.0506   0.00    2.0
2015/12/14 17:26:59.000        -0.8065        -0.2733        -0.5614   2  15   0.1143   0.0612   0.1444  -0.0151  -0.0597   0.0504   0.00    2.0
2015/12/14 17:27:00.000        -0.7974        -0.2722        -0.5503   2  15   0.1136   0.0605   0.1429  -0.0149  -0.0591   0.0502   0.00    2.0
2015/12/14 17:27:01.000        -0.7893        -0.2758        -0.5390   2  15   0.1129   0.0599   0.1414  -0.0147  -0.0585   0.0500   0.00    2.1
2015/12/14 17:27:02.000        -0.7841        -0.2726        -0.5298   2  15   0.1122   0.0592   0.1400  -0.0145  -0.0579   0.0498   0.00    2.1
2015/12/14 17:27:03.000        -0.7783        -0.2727        -0.5295   2  15   0.1115   0.0586   0.1386  -0.0143  -0.0574   0.0496   0.00    2.1
2015/12/14 17:27:04.000        -0.7745        -0.2708        -0.5185   2  15   0.1109   0.0580   0.1372  -0.0142  -0.0568   0.0495   0.00    2.1
2015/12/14 17:27:05.000        -0.7724        -0.2699        -0.5218   2  15   0.1102   0.0574   0.1358  -0.0140  -0.0563   0.0493   0.00    2.1
2015/12/14 17:27:06.000        -0.7679        -0.2709        -0.5125   2  15   0.1096   0.0568   0.1345  -0.0138  -0.0557   0.0491   0.00    2.1
2015/12/14 17:27:07.000        -0.7684        -0.2694        -0.5096   2  15   0.1089   0.0562   0.1331  -0.0137  -0.0552   0.0489   0.00    2.1
2015/12/14 17:27:08.000        -0.7647        -0.2686        -0.5065   2  15   0.1083   0.0557   0.1318  -0.0135  -0.0547   0.0487   0.00    2.2
2015/12/14 17:27:09.000        -0.7658        -0.2710        -0.5019   2  15   0.1077   0.0551   0.1306  -0.0134  -0.0542   0.0485   0.00    2.2
2015/12/14 17:27:10.000        -0.7662        -0.2730        -0.4960   2  15   0.1070   0.0546   0.1293  -0.0132  -0.0537   0.0483   0.00    2.2
2015/12/14 17:27:11.000        -0.7659        -0.2708        -0.4967   2  15   0.1064   0.0540   0.1281  -0.0131  -0.0532   0.0481   0.00    2.2
2015/12/14 17:27:12.000        -0.7670        -0.2717        -0.4991   2  15   0.1058   0.0535   0.1268  -0.0129  -0.0527   0.0479   0.00    2.2
2015/12/14 17:27:13.000        -0.7695        -0.2724        -0.4962   2  15   0.1052   0.0530   0.1256  -0.0128  -0.0522   0.0477   0.00    2.2
2015/12/14 17:27:14.000        -0.7677        -0.2708        -0.5032   2  15   0.1046   0.0525   0.1245  -0.0126  -0.0517   0.0475   0.00    2.2
2015/12/14 17:27:15.000        -0.7699        -0.2683        -0.4997   2  15   0.1040   0.0520   0.1233  -0.0125  -0.0512   0.0473   0.00    2.2
2015/12/14 17:27:16.000        -0.7695        -0.2662        -0.4958   2  15   0.1034   0.0515   0.1222  -0.0124  -0.0508   0.0471   0.00    2.3
2015/12/14 17:27:17.000        -0.7692        -0.2670        -0.4847   2  15   0.1029   0.0510   0.1210  -0.0123  -0.0503   0.0469   0.00    2.3
2015/12/14 17:27:18.000        -0.7738        -0.2648        -0.4845   2  15   0.1023   0.0505   0.1199  -0.0121  -0.0498   0.0467   0.00    2.3
2015/12/14 17:27:19.000        -0.7744        -0.2644        -0.4824   2  15   0.1017   0.0500   0.1188  -0.0120  -0.0494   0.0465   0.00    2.3
2015/12/14 17:27:20.000        -0.7768        -0.2624        -0.4821   2  15   0.1011   0.0495   0.1178  -0.0119  -0.0490   0.0464   0.00    2.3
2015/12/14 17:27:21.000        -0.7759        -0.2621        -0.4866   2  15   0.1006   0.0491   0.1167  -0.0118  -0.0485   0.0462   0.00    2.4
2015/12/14 17:27:22.000        -0.7730        -0.2648        -0.4747   2  15   0.1000   0.0486   0.1156  -0.0116  -0.0481   0.0460   0.00    2.4
2015/12/14 17:27:23.000        -0.7753        -0.2639        -0.4785   2  15   0.0995   0.0482   0.1146  -0.0115  -0.0477   0.0458   0.00    2.4
2015/12/14 17:27:24.000        -0.7776        -0.2630        -0.4845   2  15   0.0989   0.0477   0.1136  -0.0114  -0.0473   0.0456   0.00    2.4
2015/12/14 17:27:25.000        -0.7721        -0.2612        -0.4858   2  15   0.0984   0.0473   0.1126  -0.0113  -0.0468   0.0454   0.00    2.4
2015/12/14 17:27:26.000        -0.7717        -0.2631        -0.4756   2  15   0.0979   0.0469   0.1116  -0.0112  -0.0464   0.0452   0.00    2.4
2015/12/14 17:27:27.000        -0.7688        -0.2577        -0.4777   2  15   0.0973   0.0465   0.1107  -0.0111  -0.0460   0.0450   0.00    2.4
2015/12/14 17:27:28.000        -0.7740        -0.2573        -0.4749   2  15   0.0968   0.0460   0.1097  -0.0110  -0.0456   0.0448   0.00    2.4
2015/12/14 17:27:29.000        -0.7676        -0.2547        -0.4707   2  15   0.0963   0.0456   0.1088  -0.0109  -0.0453   0.0446   0.00    2.4
2015/12/14 17:27:30.000        -0.7692        -0.2509        -0.4738   2  15   0.0958   0.0452   0.1078  -0.0108  -0.0449   0.0444   0.00    2.4
2015/12/14 17:27:31.000        -0.7644        -0.2465        -0.4778   2  15   0.0953   0.0448   0.1069  -0.0107  -0.0445   0.0443   0.00    2.4
2015/12/14 17:27:32.000        -0.7613        -0.2464        -0.4790   2  15   0.0947   0.0445   0.1060  -0.0106  -0.0441   0.0441   0.00    2.4
2015/12/14 17:27:33.000        -0.7556        -0.2456        -0.4833   2  15   0.0942   0.0441   0.1051  -0.0105  -0.0438   0.0439   0.00    2.4
2015/12/14 17:27:34.000        -0.7525        -0.2448        -0.4810   2  15   0.0937   0.0437   0.1043  -0.0104  -0.0434   0.0437   0.00    2.4
2015/12/14 17:27:35.000        -0.7483        -0.2458        -0.4773   2  15   0.0932   0.0433   0.1034  -0.0103  -0.0430   0.0435   0.00    2.4
2015/12/14 17:27:36.000        -0.7464        -0.2423        -0.4838   2  15   0.0928   0.0429   0.1025  -0.0102  -0.0427   0.0433   0.00    2.4
2015/12/14 17:27:37.000        -0.7425        -0.2413        -0.4796   2  15   0.0923   0.0426   0.1017  -0.0101  -0.0423   0.0431   0.00    2.4
2015/12/14 17:27:38.000        -0.7388        -0.2395        -0.4869   2  15   0.0918   0.0422   0.1009  -0.0100  -0.0420   0.0430   0.00    2.4
2015/12/14 17:27:39.000        -0.7356        -0.2383        -0.4835   2  15   0.0913   0.0419   0.1001  -0.0100  -0.0416   0.0428   0.00    2.4
2015/12/14 17:27:40.000        -0.7325        -0.2346        -0.4858   2  15   0.0908   0.0415   0.0993  -0.0099  -0.0413   0.0426   0.00    2.4
2015/12/14 17:27:41.000        -0.7312        -0.2334        -0.4841   2  15   0.0904   0.0412   0.0985  -0.0098  -0.0410   0.0424   0.00    2.9
2015/12/14 17:27:42.000        -0.7299        -0.2293        -0.4899   2  15   0.0899   0.0409   0.0977  -0.0097  -0.0407   0.0422   0.00    3.0
2015/12/14 17:27:43.000        -0.7272        -0.2252        -0.4919   2  15   0.0894   0.0405   0.0969  -0.0096  -0.0403   0.0420   0.00    3.0
2015/12/14 17:27:44.000        -0.2734        -0.2256         0.0039   1  15   0.0050   0.0060   0.0124  -0.0024  -0.0030  -0.0030   0.00    3.0
2015/12/14 17:27:45.000        -0.2733        -0.2258         0.0030   1  15   0.0050   0.0060   0.0124  -0.0024  -0.0030  -0.0030   0.00    3.0
2015/12/14 17:27:46.000        -0.2737        -0.2270         0.0000   1  15   0.0050   0.0060   0.0124  -0.0024  -0.0030  -0.0030   0.00    3.0
2015/12/14 17:27:47.000        -0.2720        -0.2265         0.0011   1  15   0.0050   0.0060   0.0124  -0.0024  -0.0030  -0.0030   0.00    3.0
2015/12/14 17:27:48.000        -0.2741        -0.2270         0.0020   1  15   0.0050   0.0060   0.0124  -0.0024  -0.0030  -0.0030   0.00    3.0
2015/12/14 17:27:49.000        -0.2736        -0.2262         0.0031   1  15   0.0050   0.0060   0.0124  -0.0024  -0.0030  -0.0030   0.00    3.0
2015/12/14 17:27:50.000        -0.2729        -0.2265         0.0003   1  15   0.0050   0.0060   0.0124  -0.0024  -0.0030  -0.0030   0.00    3.1
2015/12/14 17:27:51.000        -0.2747        -0.2253         0.0034   1  15   0.0050   0.0060   0.0124  -0.0024  -0.0030  -0.0030   0.00    3.1
2015/12/14 17:27:52.000        -0.2727        -0.2265         0.0024   1  15   0.0050   0.0060   0.0124  -0.0024  -0.0030  -0.0030   0.00    3.1
2015/12/14 17:27:53.000        -0.2740        -0.2262         0.0034   1  15   0.0050   0.0060   0.0124  -0.0024  -0.0030  -0.0030   0.00    3.1
2015/12/14 17:27:54.000        -0.2722        -0.2266         0.0001   1  15   0.0050   0.0060   0.0124  -0.0024  -0.0030  -0.0030   0.00   18.2
2015/12/14 17:27:55.000        -0.2732        -0.2264         0.0025   1  15   0.0050   0.0060   0.0124  -0.0024  -0.0030  -0.0030   0.00   27.4
2015/12/14 17:27:56.000        -0.2738        -0.2262         0.0042   1  15   0.0050   0.0060   0.0124  -0.0024  -0.0030  -0.0030   0.00   37.1
2015/12/14 17:27:57.000        -0.2742        -0.2271         0.0066   1  15   0.0050   0.0060   0.0124  -0.0024  -0.0030  -0.0030   0.00   47.1
2015/12/14 17:27:58.000        -0.2734        -0.2257         0.0027   1  15   0.0050   0.0060   0.0124  -0.0024  -0.0030  -0.0030   0.00   54.2
2015/12/14 17:27:59.000        -0.2737        -0.2267         0.0052   1  15   0.0050   0.0060   0.0124  -0.0024  -0.0030  -0.0030   0.00   58.5
2015/12/14 17:28:00.000        -0.2741        -0.2256         0.0034   1  15   0.0050   0.0060   0.0124  -0.0024  -0.0030  -0.0030   0.00   62.9
2015/12/14 17:28:01.000        -0.2727        -0.2266         0.0044   1  15   0.0050   0.0060   0.0124  -0.0024  -0.0030  -0.0030   0.00   67.2
2015/12/14 17:28:02.000        -0.2730        -0.2265         0.0049   1  15   0.0050   0.0060   0.0124  -0.0024  -0.0030  -0.0030   0.00   71.5
2015/12/14 17:28:03.000        -0.2727        -0.2264         0.0029   1  15   0.0050   0.0060   0.0124  -0.0024  -0.0030  -0.0030   0.00   76.0
2015/12/14 17:28:04.000        -0.2732        -0.2251         0.0032   1  15   0.0050   0.0060   0.0124  -0.0024  -0.0030  -0.0030   0.00   80.0
2015/12/14 17:28:05.000        -0.2734        -0.2266         0.0029   1  15   0.0050   0.0060   0.0124  -0.0024  -0.0030  -0.0030   0.00   84.4
2015/12/14 17:28:06.000        -0.2734        -0.2272         0.0041   1  15   0.0050   0.0060   0.0124  -0.0024  -0.0030  -0.0030   0.00   88.8
2015/12/14 17:28:07.000        -0.2738        -0.2267         0.0050   1  15   0.0050   0.0060   0.0124  -0.0024  -0.0030  -0.0030   0.00   93.1
2015/12/14 17:28:08.000        -0.2741        -0.2267         0.0014   1  15   0.0050   0.0060   0.0124  -0.0024  -0.0030  -0.0030   0.00   97.4
2015/12/14 17:28:09.000        -0.2738        -0.2268         0.0019   1  15   0.0050   0.0060   0.0124  -0.0024  -0.0030  -0.0030   0.00  101.6
2015/12/14 17:28:10.000        -0.2730        -0.2265         0.0035   1  15   0.0050   0.0060   0.0124  -0.0024  -0.0030  -0.0030   0.00  106.2
2015/12/14 17:28:11.000        -0.2733        -0.2274         0.0031   1  15   0.0050   0.0060   0.0124  -0.0024  -0.0030  -0.0030   0.00  110.7
2015/12/14 17:28:12.000        -0.2740        -0.2282         0.0069   1  15   0.0050   0.0060   0.0124  -0.0024  -0.0030  -0.0030   0.00  115.1
2015/12/14 17:28:13.000        -0.2723        -0.2294         0.0016   1  15   0.0050   0.0060   0.0124  -0.0024  -0.0030  -0.0030   0.00  119.5
2015/12/14 17:28:14.000        -0.2727        -0.2292         0.0025   1  15   0.0050   0.0060   0.0124  -0.0024  -0.0030  -0.0030   0.00  124.1
2015/12/14 17:28:15.000        -0.2720        -0.2292         0.0002   1  15   0.0050   0.0060   0.0124  -0.0024  -0.0030  -0.0030   0.00  128.6
2015/12/14 17:28:16.000        -0.2720        -0.2280         0.0033   1  15   0.0050   0.0060   0.0124  -0.0024  -0.0030  -0.0030   0.00  133.0
2015/12/14 17:28:17.000        -0.2731        -0.2293         0.0038   1  15   0.0050   0.0060   0.0124  -0.0024  -0.0030  -0.0030   0.00  137.4
2015/12/14 17:28:18.000        -0.2721        -0.2295         0.0042   1  15   0.0050   0.0060   0.0124  -0.0024  -0.0030  -0.0030   0.00  141.8
2015/12/14 17:28:19.000        -0.2720        -0.2293         0.0038   1  15   0.0050   0.0060   0.0124  -0.0024  -0.0030  -0.0030   0.00  146.3
2015/12/14 17:28:20.000        -0.2711        -0.2305         0.0040   1  15   0.0050   0.0060   0.0124  -0.0024  -0.0030  -0.0030   0.00  151.0
2015/12/14 17:28:21.000        -0.2714        -0.2293         0.0032   1  15   0.0050   0.0060   0.0124  -0.0024  -0.0030  -0.0030   0.00  155.8
2015/12/14 17:28:22.000        -0.2720        -0.2282         0.0041   1  15   0.0050   0.0060   0.0124  -0.0024  -0.0030  -0.0030   0.00  160.3
2015/12/14 17:28:23.000        -0.2708        -0.2288         0.0036   1  15   0.0050   0.0060   0.0124  -0.0024  -0.0030  -0.0030   0.00  164.6
2015/12/14 17:28:24.000        -0.2720        -0.2285         0.0049   1  15   0.0050   0.0060   0.0124  -0.0024  -0.0030  -0.0030   0.00  169.2
2015/12/14 17:28:25.000        -0.2718        -0.2265         0.0029   1  15   0.0050   0.0060   0.0124  -0.0024  -0.0030  -0.0030   0.00  173.6
2015/12/14 17:28:26.000        -0.2730        -0.2268         0.0046   1  15   0.0050   0.0060   0.0124  -0.0024  -0.0030  -0.0030   0.00  177.8
2015/12/14 17:28:27.000        -0.2727        -0.2269         0.0051   1  15   0.0050   0.0060   0.0124  -0.0024  -0.0030  -0.0030   0.00  181.8
2015/12/14 17:28:28.000        -0.2707        -0.2272         0.0004   1  15   0.0050   0.0060   0.0124  -0.0024  -0.0030  -0.0030   0.00  186.1
2015/12/14 17:28:29.000        -0.2719        -0.2270         0.0014   1  15   0.0050   0.0060   0.0124  -0.0024  -0.0030  -0.0030   0.00  190.1
2015/12/14 17:28:30.000        -0.2716        -0.2277         0.0029   1  15   0.0050   0.0060   0.0124  -0.0024  -0.0030  -0.0029   0.00  194.1
2015/12/14 17:28:31.000        -0.2711        -0.2284         0.0013   1  15   0.0050   0.0060   0.0124  -0.0024  -0.0030  -0.0029   0.00  198.0
2015/12/14 17:28:32.000        -0.2711        -0.2272         0.0028   1  15   0.0050   0.0060   0.0124  -0.0024  -0.0030  -0.0030   0.00  201.9
2015/12/14 17:28:33.000        -0.2724        -0.2273         0.0015   1  15   0.0050   0.0060   0.0124  -0.0024  -0.0030  -0.0029   0.00  205.8
2015/12/14 17:28:34.000        -0.2723        -0.2288         0.0035   1  15   0.0050   0.0060   0.0124  -0.0024  -0.0030  -0.0029   0.00  209.9
2015/12/14 17:28:35.000        -0.2733        -0.2260         0.0041   1  15   0.0050   0.0060   0.0124  -0.0024  -0.0030  -0.0029   0.00  213.6
2015/12/14 17:28:36.000        -0.2740        -0.2280         0.0050   1  15   0.0050   0.0060   0.0124  -0.0024  -0.0030  -0.0029   0.00  217.4
2015/12/14 17:28:37.000        -0.2720        -0.2276         0.0026   1  15   0.0050   0.0060   0.0124  -0.0024  -0.0030  -0.0029   0.00  221.0
2015/12/14 17:28:38.000        -0.2728        -0.2257         0.0004   1  15   0.0050   0.0060   0.0124  -0.0024  -0.0030  -0.0029   0.00  224.8
2015/12/14 17:28:39.000        -0.2738        -0.2249         0.0019   1  15   0.0050   0.0060   0.0124  -0.0024  -0.0030  -0.0029   0.00  228.6
2015/12/14 17:28:40.000        -0.2742        -0.2248         0.0016   1  15   0.0050   0.0060   0.0124  -0.0024  -0.0030  -0.0029   0.00  232.5
2015/12/14 17:28:41.000        -0.2737        -0.2248         0.0029   1  15   0.0050   0.0060   0.0124  -0.0024  -0.0030  -0.0029   0.00  236.3
2015/12/14 17:28:42.000        -0.2749        -0.2236        -0.0019   1  15   0.0050   0.0060   0.0124  -0.0024  -0.0030  -0.0029   0.00  240.1
2015/12/14 17:28:43.000        -0.2752        -0.2239        -0.0000   1  15   0.0050   0.0060   0.0124  -0.0024  -0.0030  -0.0029   0.00  243.7
2015/12/14 17:28:44.000        -0.2751        -0.2245        -0.0051   1  14   0.0052   0.0062   0.0132  -0.0028  -0.0040  -0.0015   0.00  245.3
2015/12/14 17:28:45.000        -0.2734        -0.2251        -0.0036   1  14   0.0052   0.0062   0.0132  -0.0028  -0.0040  -0.0015   0.00  249.8
2015/12/14 17:28:46.000        -0.2742        -0.2241        -0.0046   1  14   0.0052   0.0062   0.0132  -0.0028  -0.0040  -0.0015   0.00  253.9
2015/12/14 17:28:47.000        -0.2747        -0.2229        -0.0033   1  14   0.0052   0.0062   0.0132  -0.0028  -0.0040  -0.0015   0.00  257.6
2015/12/14 17:28:48.000        -0.2730        -0.2248        -0.0053   1  14   0.0052   0.0062   0.0132  -0.0028  -0.0040  -0.0015   0.00  261.5
2015/12/14 17:28:49.000        -0.2734        -0.2250        -0.0037   1  14   0.0052   0.0062   0.0132  -0.0028  -0.0040  -0.0015   0.00  265.4
2015/12/14 17:28:50.000        -0.2735        -0.2254        -0.0033   1  14   0.0052   0.0062   0.0132  -0.0028  -0.0040  -0.0015   0.00  268.9
2015/12/14 17:28:51.000        -0.2725        -0.2252        -0.0046   1  14   0.0052   0.0062   0.0132  -0.0028  -0.0040  -0.0015   0.00  272.7
2015/12/14 17:28:52.000        -0.2718        -0.2260        -0.0032   1  14   0.0052   0.0062   0.0132  -0.0028  -0.0040  -0.0015   0.00  276.6
2015/12/14 17:28:53.000        -0.2719        -0.2271        -0.0004   1  14   0.0052   0.0062   0.0132  -0.0028  -0.0040  -0.0015   0.00  280.4
2015/12/14 17:28:54.000        -0.2717        -0.2272        -0.0020   1  14   0.0052   0.0062   0.0132  -0.0028  -0.0040  -0.0015   0.00  284.3
2015/12/14 17:28:55.000        -0.2719        -0.2276        -0.0003   1  14   0.0052   0.0062   0.0132  -0.0028  -0.0040  -0.0014   0.00  288.0
2015/12/14 17:28:56.000        -0.2710        -0.2281         0.0016   1  14   0.0052   0.0062   0.0132  -0.0028  -0.0040  -0.0015   0.00  292.0
2015/12/14 17:28:57.000        -0.2696        -0.2281        -0.0004   1  14   0.0052   0.0062   0.0132  -0.0028  -0.0040  -0.0015   0.00  296.0
2015/12/14 17:28:58.000        -0.2709        -0.2279         0.0036   1  14   0.0052   0.0062   0.0132  -0.0028  -0.0040  -0.0015   0.00  300.1
2015/12/14 17:28:59.000        -0.2711        -0.2277         0.0058   1  14   0.0052   0.0062   0.0132  -0.0028  -0.0040  -0.0015   0.00  304.2
2015/12/14 17:29:00.000        -0.2728        -0.2266         0.0031   1  14   0.0052   0.0062   0.0132  -0.0028  -0.0040  -0.0015   0.00  308.2
2015/12/14 17:29:01.000        -0.2722        -0.2279         0.0018   1  14   0.0052   0.0062   0.0132  -0.0028  -0.0040  -0.0014   0.00  313.0
2015/12/14 17:29:02.000        -0.2724        -0.2270         0.0029   1  14   0.0052   0.0062   0.0132  -0.0028  -0.0040  -0.0014   0.00  317.1
2015/12/14 17:29:03.000        -0.2732        -0.2280         0.0053   1  14   0.0052   0.0062   0.0132  -0.0028  -0.0040  -0.0014   0.00  321.3
2015/12/14 17:29:04.000        -0.2746        -0.2260         0.0057   1  14   0.0052   0.0062   0.0132  -0.0028  -0.0040  -0.0014   0.00  325.3
2015/12/14 17:29:05.000        -0.2740        -0.2276         0.0039   1  14   0.0052   0.0062   0.0132  -0.0028  -0.0040  -0.0014   0.00  330.0
2015/12/14 17:29:06.000        -0.2745        -0.2270         0.0081   1  14   0.0052   0.0062   0.0132  -0.0028  -0.0040  -0.0014   0.00  334.1
2015/12/14 17:29:07.000        -0.2745        -0.2266         0.0049   1  14   0.0052   0.0062   0.0132  -0.0028  -0.0040  -0.0014   0.00  338.4
2015/12/14 17:29:08.000        -0.2746        -0.2265         0.0054   1  14   0.0052   0.0062   0.0132  -0.0028  -0.0040  -0.0014   0.00  342.9
2015/12/14 17:29:09.000        -0.2745        -0.2277         0.0057   1  14   0.0052   0.0062   0.0132  -0.0028  -0.0040  -0.0014   0.00  346.9
2015/12/14 17:29:10.000        -0.2749        -0.2267         0.0044   1  14   0.0052   0.0062   0.0132  -0.0028  -0.0040  -0.0014   0.00  350.8
2015/12/14 17:29:11.000        -0.2742        -0.2274         0.0062   1  14   0.0052   0.0062   0.0132  -0.0028  -0.0040  -0.0014   0.00  355.3
2015/12/14 17:29:12.000        -0.2747        -0.2254         0.0061   1  14   0.0052   0.0062   0.0132  -0.0028  -0.0040  -0.0014   0.00  358.4
2015/12/14 17:29:13.000        -0.2743        -0.2262         0.0052   1  14   0.0052   0.0062   0.0132  -0.0028  -0.0040  -0.0014   0.00  362.3
2015/12/14 17:29:14.000        -0.2745        -0.2271         0.0059   1  14   0.0052   0.0062   0.0132  -0.0028  -0.0040  -0.0014   0.00  366.2
2015/12/14 17:29:15.000        -0.2744        -0.2273         0.0038   1  14   0.0052   0.0062   0.0132  -0.0028  -0.0040  -0.0014   0.00  370.0
2015/12/14 17:29:16.000        -0.2737        -0.2267         0.0021   1  14   0.0052   0.0062   0.0132  -0.0028  -0.0040  -0.0014   0.00  374.1
2015/12/14 17:29:17.000        -0.2733        -0.2285         0.0028   1  14   0.0052   0.0062   0.0132  -0.0028  -0.0040  -0.0014   0.00  377.6
2015/12/14 17:29:18.000        -0.2740        -0.2273         0.0024   1  14   0.0052   0.0062   0.0132  -0.0028  -0.0040  -0.0014   0.00  381.3
2015/12/14 17:29:19.000        -0.2726        -0.2279         0.0040   1  14   0.0052   0.0062   0.0132  -0.0028  -0.0040  -0.0014   0.00  385.7
2015/12/14 17:29:20.000        -0.2736        -0.2272        -0.0003   1  14   0.0052   0.0062   0.0132  -0.0028  -0.0040  -0.0014   0.00  389.7
2015/12/14 17:29:21.000        -0.2744        -0.2271         0.0048   1  14   0.0052   0.0062   0.0132  -0.0028  -0.0040  -0.0014   0.00  394.4
2015/12/14 17:29:22.000        -0.2735        -0.2263        -0.0000   1  14   0.0052   0.0062   0.0132  -0.0028  -0.0040  -0.0014   0.00  398.6
2015/12/14 17:29:23.000        -0.2726        -0.2268         0.0004   1  14   0.0052   0.0062   0.0132  -0.0028  -0.0040  -0.0014   0.00  402.9
2015/12/14 17:29:24.000        -0.2735        -0.2263        -0.0029   1  14   0.0052   0.0062   0.0132  -0.0028  -0.0040  -0.0014   0.00  407.0
2015/12/14 17:29:25.000        -0.2735        -0.2258        -0.0040   1  14   0.0052   0.0062   0.0132  -0.0028  -0.0040  -0.0014   0.00  411.0
2015/12/14 17:29:26.000        -0.2732        -0.2259        -0.0002   1  14   0.0052   0.0062   0.0132  -0.0028  -0.0040  -0.0014   0.00  414.1
2015/12/14 17:29:27.000        -0.2731        -0.2256        -0.0012   1  14   0.0052   0.0062   0.0132  -0.0028  -0.0040  -0.0014   0.00  418.9
2015/12/14 17:29:28.000        -0.2739        -0.2251         0.0003   1  14   0.0052   0.0062   0.0132  -0.0028  -0.0040  -0.0014   0.00  423.0
2015/12/14 17:29:29.000        -0.2740        -0.2253         0.0041   1  14   0.0052   0.0062   0.0132  -0.0028  -0.0040  -0.0014   0.00  426.6
2015/12/14 17:29:30.000        -0.2739        -0.2256        -0.0002   1  14   0.0052   0.0062   0.0131  -0.0028  -0.0040  -0.0014   0.00  430.7
2015/12/14 17:29:31.000        -0.2739        -0.2255         0.0013   1  14   0.0052   0.0062   0.0131  -0.0028  -0.0040  -0.0014   0.00  434.2
2015/12/14 17:29:32.000        -0.2737        -0.2257         0.0017   1  14   0.0052   0.0062   0.0131  -0.0028  -0.0040  -0.0014   0.00  438.5
2015/12/14 17:29:33.000        -0.2735        -0.2259         0.0042   1  14   0.0052   0.0062   0.0131  -0.0028  -0.0040  -0.0014   0.00  442.4
2015/12/14 17:29:34.000        -0.2743        -0.2247         0.0022   1  14   0.0052   0.0062   0.0131  -0.0028  -0.0040  -0.0014   0.00  446.0
2015/12/14 17:29:35.000        -0.2732        -0.2271         0.0049   1  14   0.0052   0.0062   0.0131  -0.0028  -0.0040  -0.0014   0.00  449.6
2015/12/14 17:29:36.000        -0.2734        -0.2267         0.0039   1  14   0.0052   0.0062   0.0131  -0.0028  -0.0040  -0.0014   0.00  452.3
2015/12/14 17:29:37.000        -0.2731        -0.2267         0.0033   1  14   0.0052   0.0062   0.0131  -0.0028  -0.0040  -0.0014   0.00  455.5
2015/12/14 17:29:38.000        -0.2726        -0.2274         0.0067   1  14   0.0052   0.0062   0.0131  -0.0028  -0.0040  -0.0014   0.00  459.6
2015/12/14 17:29:39.000        -0.2732        -0.2259         0.0051   1  14   0.0052   0.0062   0.0131  -0.0028  -0.0040  -0.0014   0.00  462.5
2015/12/14 17:29:40.000        -0.2725        -0.2262         0.0061   1  14   0.0052   0.0062   0.0131  -0.0028  -0.0040  -0.0014   0.00  466.0
2015/12/14 17:29:41.000        -0.2722        -0.2264        -0.0001   1  14   0.0052   0.0062   0.0131  -0.0028  -0.0040  -0.0014   0.00  469.4
2015/12/14 17:29:42.000        -0.2735        -0.2252         0.0075   1  14   0.0052   0.0062   0.0131  -0.0028  -0.0040  -0.0014   0.00  472.8
2015/12/14 17:29:43.000        -0.2733        -0.2253         0.0064   1  14   0.0052   0.0062   0.0131  -0.0028  -0.0040  -0.0014   0.00  477.1
2015/12/14 17:29:44.000        -0.2735        -0.2251         0.0049   1  14   0.0052   0.0062   0.0131  -0.0028  -0.0040  -0.0014   0.00  481.2
2015/12/14 17:29:45.000        -0.2730        -0.2248         0.0040   1  14   0.0052   0.0062   0.0131  -0.0028  -0.0040  -0.0014   0.00  485.9
2015/12/14 17:29:46.000        -0.2721        -0.2250         0.0088   1  14   0.0052   0.0062   0.0131  -0.0028  -0.0040  -0.0014   0.00  490.5
2015/12/14 17:29:47.000        -0.2735        -0.2257         0.0067   1  14   0.0052   0.0062   0.0131  -0.0028  -0.0040  -0.0013   0.00  495.2
2015/12/14 17:29:48.000        -0.2724        -0.2260         0.0050   1  14   0.0052   0.0062   0.0131  -0.0028  -0.0040  -0.0014   0.00  499.4
2015/12/14 17:29:49.000        -0.2738        -0.2256         0.0052   1  14   0.0052   0.0062   0.0131  -0.0028  -0.0040  -0.0014   0.00  503.4
2015/12/14 17:29:50.000        -0.2745        -0.2254         0.0031   1  14   0.0052   0.0062   0.0131  -0.0028  -0.0040  -0.0013   0.00  507.4
2015/12/14 17:29:51.000        -0.2745        -0.2259         0.0050   1  14   0.0052   0.0062   0.0131  -0.0028  -0.0040  -0.0013   0.00  511.3
2015/12/14 17:29:52.000        -0.2736        -0.2260         0.0037   1  14   0.0052   0.0062   0.0131  -0.0028  -0.0040  -0.0014   0.00  515.5
2015/12/14 17:29:53.000        -0.2743        -0.2264         0.0008   1  14   0.0052   0.0062   0.0131  -0.0028  -0.0040  -0.0013   0.00  518.5
2015/12/14 17:29:54.000        -0.2745        -0.2248         0.0015   1  14   0.0052   0.0062   0.0131  -0.0028  -0.0040  -0.0013   0.00  522.3
2015/12/14 17:29:55.000        -0.2744        -0.2267         0.0009   1  14   0.0052   0.0062   0.0131  -0.0028  -0.0040  -0.0013   0.00  526.2
2015/12/14 17:29:56.000        -0.2744        -0.2262         0.0057   1  14   0.0052   0.0062   0.0131  -0.0028  -0.0040  -0.0013   0.00  529.4
2015/12/14 17:29:57.000        -0.2735        -0.2256         0.0061   1  14   0.0052   0.0062   0.0131  -0.0028  -0.0040  -0.0013   0.00  533.1
2015/12/14 17:29:58.000        -0.2749        -0.2248         0.0038   1  14   0.0052   0.0062   0.0131  -0.0028  -0.0040  -0.0013   0.00  536.8
2015/12/14 17:29:59.000        -0.2755        -0.2252         0.0040   1  14   0.0052   0.0062   0.0131  -0.0028  -0.0040  -0.0013   0.00  539.7
2015/12/14 17:30:00.000        -0.2749        -0.2257         0.0049   1  14   0.0052   0.0062   0.0131  -0.0028  -0.0040  -0.0013   0.00  542.1
2015/12/14 17:30:01.000        -0.2756        -0.2247         0.0041   1  14   0.0052   0.0062   0.0131  -0.0028  -0.0040  -0.0013   0.00  545.3
2015/12/14 17:30:02.000        -0.2744        -0.2244         0.0066   1  14   0.0052   0.0062   0.0131  -0.0028  -0.0040  -0.0013   0.00  547.4
2015/12/14 17:30:03.000        -0.2749        -0.2255         0.0090   1  14   0.0052   0.0062   0.0131  -0.0028  -0.0040  -0.0013   0.00  550.0
2015/12/14 17:30:04.000        -0.2733        -0.2245         0.0054   1  14   0.0052   0.0062   0.0131  -0.0028  -0.0040  -0.0013   0.00  552.3
2015/12/14 17:30:05.000        -0.2745        -0.2251         0.0081   1  14   0.0052   0.0062   0.0131  -0.0028  -0.0040  -0.0013   0.00  555.1
2015/12/14 17:30:06.000        -0.2730        -0.2255         0.0068   1  14   0.0052   0.0062   0.0131  -0.0028  -0.0040  -0.0013   0.00  558.7
2015/12/14 17:30:07.000        -0.2738        -0.2263         0.0077   1  14   0.0052   0.0062   0.0131  -0.0028  -0.0040  -0.0013   0.00  561.5
2015/12/14 17:30:08.000        -0.2731        -0.2270         0.0076   1  14   0.0052   0.0062   0.0131  -0.0028  -0.0040  -0.0013   0.00  564.5
2015/12/14 17:30:09.000        -0.2733        -0.2257         0.0099   1  14   0.0052   0.0062   0.0131  -0.0028  -0.0040  -0.0013   0.00  567.3
2015/12/14 17:30:10.000        -0.2715        -0.2266         0.0100   1  14   0.0052   0.0062   0.0131  -0.0028  -0.0040  -0.0013   0.00  570.6
2015/12/14 17:30:11.000        -0.2712        -0.2268         0.0055   1  14   0.0052   0.0062   0.0131  -0.0028  -0.0040  -0.0013   0.00  573.1
2015/12/14 17:30:12.000        -0.2710        -0.2286         0.0092   1  14   0.0052   0.0062   0.0131  -0.0028  -0.0040  -0.0013   0.00  575.1
2015/12/14 17:30:13.000        -0.2707        -0.2279         0.0083   1  14   0.0052   0.0062   0.0131  -0.0028  -0.0040  -0.0013   0.00  577.9
2015/12/14 17:30:14.000        -0.2709        -0.2266         0.0078   1  14   0.0052   0.0062   0.0131  -0.0028  -0.0040  -0.0013   0.00  580.6
2015/12/14 17:30:15.000        -0.2717        -0.2262         0.0061   1  14   0.0052   0.0062   0.0131  -0.0028  -0.0040  -0.0013   0.00  583.3
2015/12/14 17:30:16.000        -0.2716        -0.2272         0.0078   1  14   0.0052   0.0062   0.0131  -0.0028  -0.0040  -0.0013   0.00  585.8
2015/12/14 17:30:17.000        -0.2708        -0.2269         0.0068   1  14   0.0052   0.0062   0.0131  -0.0028  -0.0040  -0.0013   0.00  588.6
2015/12/14 17:30:18.000        -0.2708        -0.2281         0.0096   1  14   0.0052   0.0062   0.0131  -0.0028  -0.0040  -0.0013   0.00  592.3
2015/12/14 17:30:19.000        -0.2724        -0.2276         0.0056   1  14   0.0052   0.0062   0.0131  -0.0028  -0.0040  -0.0013   0.00  595.1
2015/12/14 17:30:20.000        -0.2717        -0.2271         0.0039   1  14   0.0052   0.0062   0.0131  -0.0028  -0.0040  -0.0013   0.00  598.3
2015/12/14 17:30:21.000        -0.2723        -0.2283         0.0092   1  14   0.0052   0.0062   0.0131  -0.0028  -0.0040  -0.0013   0.00  600.7
2015/12/14 17:30:22.000        -0.2723        -0.2282         0.0092   1  14   0.0052   0.0062   0.0131  -0.0028  -0.0040  -0.0013   0.00  603.2
2015/12/14 17:30:23.000        -0.2724        -0.2278         0.0096   1  14   0.0052   0.0062   0.0131  -0.0028  -0.0040  -0.0013   0.00  606.1
2015/12/14 17:30:24.000        -0.2731        -0.2269         0.0071   1  14   0.0052   0.0062   0.0131  -0.0028  -0.0040  -0.0013   0.00  609.0
2015/12/14 17:30:25.000        -0.2737        -0.2267         0.0064   1  14   0.0052   0.0062   0.0131  -0.0028  -0.0040  -0.0013   0.00  610.8
2015/12/14 17:30:26.000        -0.2752        -0.2258         0.0085   1  14   0.0052   0.0062   0.0131  -0.0028  -0.0040  -0.0013   0.00  613.3
2015/12/14 17:30:27.000        -0.2752        -0.2260         0.0104   1  14   0.0052   0.0062   0.0131  -0.0028  -0.0040  -0.0013   0.00  616.5
2015/12/14 17:30:28.000        -0.2753        -0.2265         0.0051   1  14   0.0052   0.0062   0.0131  -0.0028  -0.0040  -0.0013   0.00  619.8
2015/12/14 17:30:29.000        -0.2745        -0.2247         0.0060   1  14   0.0052   0.0062   0.0131  -0.0028  -0.0040  -0.0013   0.00  623.6
2015/12/14 17:30:30.000        -0.2759        -0.2249         0.0043   1  14   0.0052   0.0062   0.0131  -0.0028  -0.0040  -0.0013   0.00  627.4
2015/12/14 17:30:31.000        -0.2760        -0.2256         0.0053   1  14   0.0052   0.0062   0.0131  -0.0028  -0.0040  -0.0012   0.00  631.1
2015/12/14 17:30:32.000        -0.2760        -0.2264         0.0074   1  14   0.0052   0.0062   0.0131  -0.0028  -0.0040  -0.0013   0.00  635.2
2015/12/14 17:30:33.000        -0.2759        -0.2269         0.0058   1  14   0.0052   0.0062   0.0131  -0.0028  -0.0040  -0.0013   0.00  639.5
2015/12/14 17:30:34.000        -0.2758        -0.2264         0.0063   1  14   0.0052   0.0062   0.0131  -0.0028  -0.0040  -0.0012   0.00  642.6
2015/12/14 17:30:35.000        -0.2759        -0.2258         0.0048   1  14   0.0052   0.0062   0.0131  -0.0028  -0.0040  -0.0013   0.00  645.8
2015/12/14 17:30:36.000        -0.2748        -0.2273         0.0054   1  14   0.0052   0.0062   0.0131  -0.0028  -0.0040  -0.0012   0.00  650.1
2015/12/14 17:30:37.000        -0.2744        -0.2271         0.0061   1  14   0.0052   0.0062   0.0131  -0.0028  -0.0040  -0.0012   0.00  653.5
2015/12/14 17:30:38.000        -0.2747        -0.2269         0.0091   1  14   0.0052   0.0062   0.0131  -0.0028  -0.0040  -0.0012   0.00  657.7
2015/12/14 17:30:39.000        -0.2751        -0.2257         0.0107   1  14   0.0052   0.0062   0.0131  -0.0028  -0.0040  -0.0013   0.00  662.7
2015/12/14 17:30:40.000        -0.2747        -0.2258         0.0079   1  14   0.0052   0.0062   0.0131  -0.0028  -0.0040  -0.0012   0.00  667.7
2015/12/14 17:30:41.000        -0.2749        -0.2250         0.0089   1  14   0.0052   0.0062   0.0131  -0.0029  -0.0040  -0.0012   0.00  672.2
2015/12/14 17:30:42.000        -0.2740        -0.2256         0.0066   1  14   0.0052   0.0062   0.0131  -0.0028  -0.0040  -0.0012   0.00  675.2
2015/12/14 17:30:43.000        -0.2738        -0.2261         0.0048   1  14   0.0052   0.0062   0.0131  -0.0029  -0.0040  -0.0012   0.00  680.1
2015/12/14 17:30:44.000        -0.2746        -0.2250         0.0069   1  14   0.0052   0.0062   0.0131  -0.0028  -0.0040  -0.0012   0.00  684.1
2015/12/14 17:30:45.000        -0.2745        -0.2261         0.0080   1  14   0.0052   0.0062   0.0131  -0.0028  -0.0040  -0.0012   0.00  688.2
2015/12/14 17:30:46.000        -0.2747        -0.2260         0.0059   1  14   0.0052   0.0062   0.0130  -0.0029  -0.0040  -0.0012   0.00  692.2
2015/12/14 17:30:47.000        -0.2743        -0.2258         0.0067   1  14   0.0052   0.0062   0.0130  -0.0029  -0.0040  -0.0012   0.00  696.0
2015/12/14 17:30:48.000        -0.2731        -0.2263         0.0072   1  14   0.0052   0.0062   0.0130  -0.0029  -0.0040  -0.0012   0.00  699.5
2015/12/14 17:30:49.000        -0.2728        -0.2253         0.0048   1  14   0.0052   0.0062   0.0130  -0.0029  -0.0040  -0.0012   0.00  703.0
2015/12/14 17:30:50.000        -0.2729        -0.2271         0.0078   1  14   0.0052   0.0062   0.0130  -0.0029  -0.0040  -0.0012   0.00  704.9
2015/12/14 17:30:51.000        -0.2722        -0.2261         0.0055   1  14   0.0052   0.0062   0.0130  -0.0029  -0.0040  -0.0012   0.00  706.6
2015/12/14 17:30:52.000        -0.2723        -0.2263         0.0080   1  14   0.0052   0.0062   0.0130  -0.0029  -0.0040  -0.0012   0.00  709.0
2015/12/14 17:30:53.000        -0.2731        -0.2246         0.0071   1  14   0.0052   0.0062   0.0130  -0.0029  -0.0040  -0.0012   0.00  711.6
2015/12/14 17:30:54.000        -0.2718        -0.2263         0.0084   1  14   0.0052   0.0062   0.0130  -0.0029  -0.0040  -0.0012   0.00  714.1
2015/12/14 17:30:55.000        -0.2722        -0.2253         0.0064   1  14   0.0052   0.0062   0.0130  -0.0029  -0.0040  -0.0012   0.00  717.2
2015/12/14 17:30:56.000        -0.2717        -0.2273         0.0099   1  14   0.0052   0.0062   0.0130  -0.0029  -0.0040  -0.0012   0.00  720.1
2015/12/14 17:30:57.000        -0.2725        -0.2258         0.0080   1  14   0.0052   0.0062   0.0130  -0.0029  -0.0040  -0.0012   0.00  722.5
2015/12/14 17:30:58.000        -0.2729        -0.2279         0.0079   1  14   0.0052   0.0062   0.0130  -0.0029  -0.0040  -0.0012   0.00  725.0
2015/12/14 17:30:59.000        -0.2723        -0.2260         0.0077   1  14   0.0052   0.0062   0.0130  -0.0029  -0.0040  -0.0012   0.00  726.7
2015/12/14 17:31:00.000        -0.2727        -0.2290         0.0105   1  14   0.0052   0.0062   0.0130  -0.0029  -0.0041  -0.0012   0.00  729.3
2015/12/14 17:31:01.000        -0.2722        -0.2279         0.0076   1  14   0.0052   0.0062   0.0130  -0.0029  -0.0041  -0.0012   0.00  732.4
2015/12/14 17:31:02.000        -0.2724        -0.2293         0.0124   1  14   0.0052   0.0062   0.0130  -0.0029  -0.0040  -0.0012   0.00  733.9
2015/12/14 17:31:03.000        -0.2733        -0.2287         0.0093   1  14   0.0052   0.0062   0.0130  -0.0029  -0.0040  -0.0012   0.00  736.4
2015/12/14 17:31:04.000        -0.2721        -0.2294         0.0123   1  14   0.0052   0.0062   0.0130  -0.0029  -0.0041  -0.0012   0.00  739.2
2015/12/14 17:31:05.000        -0.2718        -0.2292         0.0129   1  14   0.0052   0.0062   0.0130  -0.0029  -0.0040  -0.0012   0.00  742.6
2015/12/14 17:31:06.000        -0.2717        -0.2286         0.0129   1  14   0.0052   0.0062   0.0130  -0.0029  -0.0041  -0.0012   0.00  745.9
2015/12/14 17:31:07.000        -0.2718        -0.2282         0.0105   1  14   0.0052   0.0062   0.0130  -0.0029  -0.0041  -0.0012   0.00  748.7
2015/12/14 17:31:08.000        -0.2716        -0.2285         0.0118   1  14   0.0052   0.0062   0.0130  -0.0029  -0.0040  -0.0012   0.00  750.5
2015/12/14 17:31:09.000        -0.2724        -0.2294         0.0103   1  14   0.0052   0.0062   0.0130  -0.0029  -0.0041  -0.0012   0.00  753.2
2015/12/14 17:31:10.000        -0.2723        -0.2287         0.0097   1  14   0.0052   0.0062   0.0130  -0.0029  -0.0041  -0.0012   0.00  755.5
2015/12/14 17:31:11.000        -0.2738        -0.2274         0.0091   1  14   0.0052   0.0062   0.0130  -0.0029  -0.0041  -0.0012   0.00  757.8
2015/12/14 17:31:12.000        -0.2730        -0.2271         0.0103   1  14   0.0052   0.0062   0.0130  -0.0029  -0.0041  -0.0012   0.00  759.3
2015/12/14 17:31:13.000        -0.2732        -0.2274         0.0089   1  14   0.0052   0.0062   0.0130  -0.0029  -0.0041  -0.0012   0.00  761.6
2015/12/14 17:31:14.000        -0.2724        -0.2286         0.0093   1  14   0.0052   0.0062   0.0130  -0.0029  -0.0041  -0.0012   0.00  764.1
2015/12/14 17:31:15.000        -0.2732        -0.2265         0.0114   1  14   0.0052   0.0062   0.0130  -0.0029  -0.0041  -0.0012   0.00  766.5
2015/12/14 17:31:16.000        -0.2739        -0.2275         0.0089   1  14   0.0052   0.0062   0.0130  -0.0029  -0.0041  -0.0012   0.00  769.4
2015/12/14 17:31:17.000        -0.2737        -0.2275         0.0119   1  14   0.0052   0.0062   0.0130  -0.0029  -0.0041  -0.0012   0.00  771.2
2015/12/14 17:31:18.000        -0.2743        -0.2283         0.0097   1  14   0.0052   0.0062   0.0130  -0.0029  -0.0041  -0.0011   0.00  773.3
2015/12/14 17:31:19.000        -0.2738        -0.2281         0.0100   1  14   0.0052   0.0062   0.0130  -0.0029  -0.0041  -0.0011   0.00  775.6
2015/12/14 17:31:20.000        -0.2728        -0.2291         0.0066   1  14   0.0052   0.0062   0.0130  -0.0029  -0.0041  -0.0011   0.00  779.6
2015/12/14 17:31:21.000        -0.2737        -0.2279         0.0047   1  14   0.0052   0.0062   0.0130  -0.0029  -0.0041  -0.0011   0.00  784.2
2015/12/14 17:31:22.000        -0.2748        -0.2276         0.0071   1  14   0.0052   0.0062   0.0130  -0.0029  -0.0041  -0.0011   0.00  786.9
2015/12/14 17:31:23.000        -0.2730        -0.2273         0.0074   1  14   0.0052   0.0062   0.0130  -0.0029  -0.0041  -0.0011   0.00  791.4
2015/12/14 17:31:24.000        -0.2747        -0.2264         0.0069   1  14   0.0052   0.0062   0.0130  -0.0029  -0.0041  -0.0012   0.00  795.3
2015/12/14 17:31:25.000        -0.2748        -0.2268         0.0056   1  14   0.0052   0.0062   0.0130  -0.0029  -0.0041  -0.0011   0.00  800.1
2015/12/14 17:31:26.000        -0.2741        -0.2263         0.0025   1  14   0.0052   0.0062   0.0130  -0.0029  -0.0041  -0.0011   0.00  804.8
2015/12/14 17:31:27.000        -0.2748        -0.2237         0.0044   1  14   0.0052   0.0062   0.0130  -0.0029  -0.0041  -0.0011   0.00  809.6
2015/12/14 17:31:28.000        -0.2748        -0.2251         0.0032   1  14   0.0052   0.0062   0.0130  -0.0029  -0.0041  -0.0011   0.00  814.4
2015/12/14 17:31:29.000        -0.2765        -0.2235         0.0003   1  14   0.0052   0.0063   0.0130  -0.0029  -0.0041  -0.0011   0.00  818.1
2015/12/14 17:31:30.000        -0.2753        -0.2231        -0.0006   1  14   0.0052   0.0063   0.0130  -0.0029  -0.0041  -0.0011   0.00  823.9
2015/12/14 17:31:31.000        -0.2767        -0.2231         0.0006   1  14   0.0052   0.0063   0.0130  -0.0029  -0.0041  -0.0011   0.00  827.3
2015/12/14 17:31:32.000        -0.2763        -0.2234        -0.0023   1  14   0.0052   0.0063   0.0130  -0.0029  -0.0041  -0.0011   0.00  831.8
2015/12/14 17:31:33.000        -0.2769        -0.2223         0.0017   1  14   0.0052   0.0062   0.0130  -0.0029  -0.0041  -0.0011   0.00  833.7
2015/12/14 17:31:34.000        -0.2768        -0.2232        -0.0022   1  14   0.0052   0.0063   0.0130  -0.0029  -0.0041  -0.0011   0.00  837.2
2015/12/14 17:31:35.000        -0.2761        -0.2233        -0.0023   1  14   0.0052   0.0063   0.0130  -0.0029  -0.0041  -0.0011   0.00  840.1
2015/12/14 17:31:36.000        -0.2764        -0.2233         0.0015   1  14   0.0052   0.0063   0.0130  -0.0029  -0.0041  -0.0011   0.00  842.0
2015/12/14 17:31:37.000        -0.2761        -0.2232        -0.0018   1  14   0.0052   0.0063   0.0130  -0.0029  -0.0041  -0.0011   0.00  845.0
2015/12/14 17:31:38.000        -0.2763        -0.2225         0.0024   1  14   0.0052   0.0063   0.0130  -0.0029  -0.0041  -0.0011   0.00  847.9
2015/12/14 17:31:39.000        -0.2762        -0.2229        -0.0004   1  14   0.0052   0.0063   0.0130  -0.0029  -0.0041  -0.0011   0.00  851.4
2015/12/14 17:31:40.000        -0.2756        -0.2245         0.0036   1  14   0.0052   0.0063   0.0130  -0.0029  -0.0041  -0.0011   0.00  854.8
2015/12/14 17:31:41.000        -0.2763        -0.2256         0.0061   1  14   0.0052   0.0063   0.0130  -0.0029  -0.0041  -0.0011   0.00  858.2
2015/12/14 17:31:42.000        -0.2749        -0.2245         0.0049   1  14   0.0052   0.0063   0.0130  -0.0029  -0.0041  -0.0011   0.00  861.1
2015/12/14 17:31:43.000        -0.2761        -0.2241         0.0061   1  14   0.0052   0.0063   0.0130  -0.0029  -0.0041  -0.0011   0.00  863.4
